{"offices": [{"address": "pl Zamkowy 4\n00-277 Warszawa\nPolska", "id": "zamek", "image": "", "lat": 52.247778, "lng": 21.014167, "name": "Zamek królewski", "phone": "", "region": "europe"}, {"address": "pl Defilad 1\n00-110 Warszawa\nPolska", "id": "pkin", "image": "", "lat": 52.231667, "lng": 21.006389, "name": "Pałac Kultury i Nauki", "phone": "", "region": "europe"}, {"address": "ul Agrykola 1\n00-461 Warszawa\nPolska", "id": "lazienki", "image": "", "lat": 52.214444, "lng": 21.031667, "name": "Łazienki Królewskie", "phone": "", "region": "europe"}], "regions": [{"coords": {"lat": 2.9660291, "lng": 1.3271339}, "id": "africa-middle-east", "name": "Afryka i\u00a0Bliski Wsch\u00f3d", "zoom": 3.0}, {"coords": {"lat": 0.0524811, "lng": 127.6560787}, "id": "asia-pacific", "name": "Azja i Pacyfik", "zoom": 3.0}, {"coords": {"lat": 46.1352815, "lng": 7.4033438}, "id": "europe", "name": "Europa", "zoom": 4.0}, {"coords": {"lat": -17.5554497, "lng": -99.2316195}, "id": "latin-america", "name": "Ameryka \u0141aci\u0144ska", "zoom": 3.0}, {"coords": {"lat": 45.7128252, "lng": -97.1547448}, "id": "north-america", "name": "Ameryka P\u00f3\u0142nocna", "zoom": 4.0}]}